[
  {
    "name": "Default Address",
    "address-full-Name": "530 Oakdene Ave, Ridgefield, NJ",
    "address-short-name": "530 Oakdene Ave",
    "address-longer-name": "530 Oakdene Avenue",
    "search-address-key": "530 Oakdene Ridgefield",
    "latitude": "40.8282943",
    "longitude": "-73.9955349",
    "city": "Ridgefield",
    "state": "NJ",
    "county": "Bergen County",
    "zip-code": "07657"
  },
  {
    "name": "Hdr Address",
    "address-full-Name": "411 Lafayette Ave, Cliffside Park, NJ",
    "address-short-name": "411 Lafayette Ave",
    "address-longer-name": "411 Lafayette Avenue",
    "search-address-key": "411 Lafayette Cliffside",
    "latitude": "40.831298798164646",
    "longitude": "-73.98807469140287",
    "city": "Ridgefield",
    "state": "NJ",
    "county": "Bergen County",
    "zip-code": "07657"
  },
  {
    "name": "Remote Address",
    "address-full-Name": "774 River Rd, Edgewater, NJ",
    "address-short-name": "774 River Rd",
    "address-longer-name": "774 River Road",
    "search-address-key": "774 River Road Edgewater",
    "latitude": "40.82189245944769",
    "longitude": "-73.9771504448479",
    "city": "Ridgefield",
    "state": "NJ",
    "county": "Bergen County",
    "zip-code": "07657"
  },
  {
    "name": "Status Test Address",
    "address-full-Name": "216 Union St, Hackensack, NJ",
    "address-short-name": "216 Union St",
    "address-longer-name": "216 Union Street",
    "search-address-key": "216 Union Street Hackensack",
    "latitude": "40.8852914287030",
    "longitude": "-74.04530773252068",
    "city": "Ridgefield",
    "state": "NJ",
    "county": "Bergen County",
    "zip-code": "07657"
  },
  {
    "name": "Alter Hdr Delivery Address",
    "address-full-Name": "169 Veterans Dr, Northvale, NJ",
    "address-short-name": "169 Veterans Dr",
    "address-longer-name": "169 Veterans Drive",
    "search-address-key": "169 Veterans Drive Northvale",
    "latitude": "41.00170880762648",
    "longitude": "-73.94702925045739",
    "city": "Northvale",
    "state": "NJ",
    "county": "Bergen County",
    "zip-code": "07647"
  },
  {
    "name": "No Open Restaurant Address",
    "address-full-Name": "43 Henry Ave, Palisades Park, NJ",
    "address-short-name": "43 Henry Ave",
    "address-longer-name": "43 Henry Avenue",
    "search-address-key": "43 Henry Avenue Palisades",
    "latitude": "40.847401976319325",
    "longitude": "-74.0004121802904",
    "city": "Ridgefield",
    "state": "NJ",
    "county": "Bergen County",
    "zip-code": "07657"
  },
  {
    "name": "Inventory Test Address",
    "address-full-Name": "Nugentown, Little Egg Harbor Township, NJ",
    "address-short-name": "Nugentown",
    "address-longer-name": "Nugentown",
    "search-address-key": "Nugentown Little Egg Harbor Township",
    "latitude": "39.61843942336586",
    "longitude": "-74.35495206395476",
    "city": "Tuckerton",
    "state": "NJ",
    "county": "Ocean",
    "zip-code": "08087"
  },
  {
    "name": "Only Opening Soon Res Address",
    "address-full-Name": "138 Mercer St, Jersey City, NJ",
    "address-short-name": "138 Mercer Str",
    "address-longer-name": "138 Mercer Street",
    "search-address-key": "138 Mercer Street Jersey",
    "latitude": "40.71977993663781",
    "longitude": "-74.04848558122607",
    "city": "Jersey",
    "state": "NJ",
    "county": "Hudson",
    "zip-code": "07302"
  }
]